$GPGGA,090654.612,1320.870,N,07447.505,E,1,12,1.0,0.0,M,0.0,M,,*6A
$GPGSA,A,3,01,02,03,04,05,06,07,08,09,10,11,12,1.0,1.0,1.0*30
$GPRMC,090654.612,A,1320.870,N,07447.505,E,040.2,098.1,131021,000.0,W*78
$GPGGA,090655.612,1320.868,N,07447.516,E,1,12,1.0,0.0,M,0.0,M,,*60
$GPGSA,A,3,01,02,03,04,05,06,07,08,09,10,11,12,1.0,1.0,1.0*30
$GPRMC,090655.612,A,1320.868,N,07447.516,E,035.6,040.6,131021,000.0,W*76
$GPGGA,090656.612,1320.876,N,07447.523,E,1,12,1.0,0.0,M,0.0,M,,*6A
$GPGSA,A,3,01,02,03,04,05,06,07,08,09,10,11,12,1.0,1.0,1.0*30
$GPRMC,090656.612,A,1320.876,N,07447.523,E,048.2,157.4,131021,000.0,W*77
$GPGGA,090657.612,1320.864,N,07447.528,E,1,12,1.0,0.0,M,0.0,M,,*63
$GPGSA,A,3,01,02,03,04,05,06,07,08,09,10,11,12,1.0,1.0,1.0*30
$GPRMC,090657.612,A,1320.864,N,07447.528,E,041.2,204.9,131021,000.0,W*7F
$GPGGA,090658.612,1320.853,N,07447.523,E,1,12,1.0,0.0,M,0.0,M,,*63
$GPGSA,A,3,01,02,03,04,05,06,07,08,09,10,11,12,1.0,1.0,1.0*30
$GPRMC,090658.612,A,1320.853,N,07447.523,E,048.0,289.5,131021,000.0,W*7D
$GPGGA,090659.612,1320.858,N,07447.510,E,1,12,1.0,0.0,M,0.0,M,,*69
$GPGSA,A,3,01,02,03,04,05,06,07,08,09,10,11,12,1.0,1.0,1.0*30
$GPRMC,090659.612,A,1320.858,N,07447.510,E,048.6,336.6,131021,000.0,W*77
$GPGGA,090700.612,1320.870,N,07447.505,E,1,12,1.0,0.0,M,0.0,M,,*6A
$GPGSA,A,3,01,02,03,04,05,06,07,08,09,10,11,12,1.0,1.0,1.0*30
$GPRMC,090700.612,A,1320.870,N,07447.505,E,013.3,128.3,131021,000.0,W*77
$GPGGA,090701.612,1320.868,N,07447.508,E,1,12,1.0,0.0,M,0.0,M,,*6F
$GPGSA,A,3,01,02,03,04,05,06,07,08,09,10,11,12,1.0,1.0,1.0*30
$GPRMC,090701.612,A,1320.868,N,07447.508,E,033.8,159.2,131021,000.0,W*7C
$GPGGA,090702.612,1320.859,N,07447.511,E,1,12,1.0,0.0,M,0.0,M,,*66
$GPGSA,A,3,01,02,03,04,05,06,07,08,09,10,11,12,1.0,1.0,1.0*30
$GPRMC,090702.612,A,1320.859,N,07447.511,E,042.0,110.5,131021,000.0,W*71
$GPGGA,090703.612,1320.855,N,07447.522,E,1,12,1.0,0.0,M,0.0,M,,*6B
$GPGSA,A,3,01,02,03,04,05,06,07,08,09,10,11,12,1.0,1.0,1.0*30
$GPRMC,090703.612,A,1320.855,N,07447.522,E,033.9,023.8,131021,000.0,W*7F
$GPGGA,090704.612,1320.863,N,07447.526,E,1,12,1.0,0.0,M,0.0,M,,*6D
$GPGSA,A,3,01,02,03,04,05,06,07,08,09,10,11,12,1.0,1.0,1.0*30
$GPRMC,090704.612,A,1320.863,N,07447.526,E,036.6,337.7,131021,000.0,W*7A
$GPGGA,090705.612,1320.873,N,07447.522,E,1,12,1.0,0.0,M,0.0,M,,*69
$GPGSA,A,3,01,02,03,04,05,06,07,08,09,10,11,12,1.0,1.0,1.0*30
$GPRMC,090705.612,A,1320.873,N,07447.522,E,029.0,220.6,131021,000.0,W*70
$GPGGA,090706.612,1320.867,N,07447.517,E,1,12,1.0,0.0,M,0.0,M,,*69
$GPGSA,A,3,01,02,03,04,05,06,07,08,09,10,11,12,1.0,1.0,1.0*30
$GPRMC,090706.612,A,1320.867,N,07447.517,E,032.3,276.8,131021,000.0,W*74
$GPGGA,090707.612,1320.868,N,07447.508,E,1,12,1.0,0.0,M,0.0,M,,*69
$GPGSA,A,3,01,02,03,04,05,06,07,08,09,10,11,12,1.0,1.0,1.0*30
$GPRMC,090707.612,A,1320.868,N,07447.508,E,033.6,159.6,131021,000.0,W*70
$GPGGA,090708.612,1320.859,N,07447.511,E,1,12,1.0,0.0,M,0.0,M,,*6C
$GPGSA,A,3,01,02,03,04,05,06,07,08,09,10,11,12,1.0,1.0,1.0*30
$GPRMC,090708.612,A,1320.859,N,07447.511,E,016.0,074.1,131021,000.0,W*7D
$GPGGA,090709.612,1320.860,N,07447.515,E,1,12,1.0,0.0,M,0.0,M,,*63
$GPGSA,A,3,01,02,03,04,05,06,07,08,09,10,11,12,1.0,1.0,1.0*30
$GPRMC,090709.612,A,1320.860,N,07447.515,E,015.4,148.5,131021,000.0,W*7F
$GPGGA,090710.612,1320.857,N,07447.518,E,1,12,1.0,0.0,M,0.0,M,,*62
$GPGSA,A,3,01,02,03,04,05,06,07,08,09,10,11,12,1.0,1.0,1.0*30
$GPRMC,090710.612,A,1320.857,N,07447.518,E,005.5,115.3,131021,000.0,W*70
$GPGGA,090711.612,1320.856,N,07447.519,E,1,12,1.0,0.0,M,0.0,M,,*63
$GPGSA,A,3,01,02,03,04,05,06,07,08,09,10,11,12,1.0,1.0,1.0*30
$GPRMC,090711.612,A,1320.856,N,07447.519,E,023.8,331.9,131021,000.0,W*76
$GPGGA,090712.612,1320.862,N,07447.516,E,1,12,1.0,0.0,M,0.0,M,,*68
$GPGSA,A,3,01,02,03,04,05,06,07,08,09,10,11,12,1.0,1.0,1.0*30
$GPRMC,090712.612,A,1320.862,N,07447.516,E,019.8,250.9,131021,000.0,W*72
$GPGGA,090713.612,1320.860,N,07447.511,E,1,12,1.0,0.0,M,0.0,M,,*6C
$GPGSA,A,3,01,02,03,04,05,06,07,08,09,10,11,12,1.0,1.0,1.0*30
$GPRMC,090713.612,A,1320.860,N,07447.511,E,030.1,339.8,131021,000.0,W*7B
$GPGGA,090714.612,1320.868,N,07447.508,E,1,12,1.0,0.0,M,0.0,M,,*6B
$GPGSA,A,3,01,02,03,04,05,06,07,08,09,10,11,12,1.0,1.0,1.0*30
$GPRMC,090714.612,A,1320.868,N,07447.508,E,032.3,096.8,131021,000.0,W*7A
$GPGGA,090715.612,1320.867,N,07447.517,E,1,12,1.0,0.0,M,0.0,M,,*6B
$GPGSA,A,3,01,02,03,04,05,06,07,08,09,10,11,12,1.0,1.0,1.0*30
$GPRMC,090715.612,A,1320.867,N,07447.517,E,029.1,041.2,131021,000.0,W*72
$GPGGA,090716.612,1320.873,N,07447.522,E,1,12,1.0,0.0,M,0.0,M,,*6B
$GPGSA,A,3,01,02,03,04,05,06,07,08,09,10,11,12,1.0,1.0,1.0*30
$GPRMC,090716.612,A,1320.873,N,07447.522,E,027.3,157.7,131021,000.0,W*7D
$GPGGA,090717.612,1320.866,N,07447.525,E,1,12,1.0,0.0,M,0.0,M,,*69
$GPGSA,A,3,01,02,03,04,05,06,07,08,09,10,11,12,1.0,1.0,1.0*30
$GPRMC,090717.612,A,1320.866,N,07447.525,E,018.3,246.0,131021,000.0,W*77
$GPGGA,090718.612,1320.864,N,07447.520,E,1,12,1.0,0.0,M,0.0,M,,*61
$GPGSA,A,3,01,02,03,04,05,06,07,08,09,10,11,12,1.0,1.0,1.0*30
$GPRMC,090718.612,A,1320.864,N,07447.520,E,025.4,155.1,131021,000.0,W*76
$GPGGA,090719.612,1320.857,N,07447.523,E,1,12,1.0,0.0,M,0.0,M,,*63
$GPGSA,A,3,01,02,03,04,05,06,07,08,09,10,11,12,1.0,1.0,1.0*30
$GPRMC,090719.612,A,1320.857,N,07447.523,E,004.2,020.2,131021,000.0,W*71
$GPGGA,090720.612,1320.858,N,07447.524,E,1,12,1.0,0.0,M,0.0,M,,*61
$GPGSA,A,3,01,02,03,04,05,06,07,08,09,10,11,12,1.0,1.0,1.0*30
$GPRMC,090720.612,A,1320.858,N,07447.524,E,018.9,335.7,131021,000.0,W*77
$GPGGA,090721.612,1320.863,N,07447.522,E,1,12,1.0,0.0,M,0.0,M,,*6E
$GPGSA,A,3,01,02,03,04,05,06,07,08,09,10,11,12,1.0,1.0,1.0*30
$GPRMC,090721.612,A,1320.863,N,07447.522,E,015.1,065.2,131021,000.0,W*7E
$GPGGA,090722.612,1320.865,N,07447.526,E,1,12,1.0,0.0,M,0.0,M,,*6F
$GPGSA,A,3,01,02,03,04,05,06,07,08,09,10,11,12,1.0,1.0,1.0*30
$GPRMC,090722.612,A,1320.865,N,07447.526,E,015.1,065.2,131021,000.0,W*7F
